id,name,lga,latitude,longitude
1,adeoyo teaching hospital,ibadan north,7.38674,3.70276
2,university college hospital,ibadan north,7.423713,3.934899
3,bowen teaching hospital,ogbomosho north,8.13347,4.23442
4,ladoke akintola teaching hospital,ogbomosho north,8.15156,4.25309
5,fiditi general hospital,afijio,7.71759,3.92277
6,"general hospital,fiditi",afijio,7.71764,3.92254
7,ilora general hospital,afijio,7.80049,3.90237
8,2nd mechanized division medical hosptal,akinyele,7.47312,3.92078
9,adegbite cottage health clinic,akinyele,7.54298,3.97
10,moniya general hospital,akinyele,7.5322,3.9109
11,emmanuel alayande college of education clinic,atiba,7.87884353,3.90683055
12,ago are general hospital,atisbo,8.49864,3.43284
13,tede general hospital,atisbo,8.57551,3.47384
14,kasumu ajia general hospital,egbeda,7.42687,4.04687
15,adeoyo teaching hospital,ibadan north,7.38674,3.70276
16,aremo general hospital,ibadan ne,,
17,jericho nursing home,ibadan nw,7.39917,3.86982
18,nigeria railways clinic,ibadan nw,7.38843,3.87683
19,police hospital,ibadan nw,7.40806,3.86532
20,government chest hospital,ibadan sw,7.39484,3.87205
21,jericho specialist hospital,ibadan sw,7.39673,3.87119
22,maternal and child health care hospital,ibadan sw,7.38204,3.84179
23,oni memorial children's hospital,ibadan sw,7.36242,3.86198
24,ring road state hospital,ibadan sw,7.35167,3.86288
25,igboora general hospital,ibarapa central,7.447,3.27684
26,eruwa general hospital,ibarapa east,7.54034,3.42853
27,lanlate general hospital,ibarapa east,7.58072,3.44497
28,ayete general hospital,ibarapa north,7.53379,3.21956
29,kisi general hospital,irepo,9.09138,3.83821
30,general hospital  iseyin,iseyin,7.94873426,3.61747034
31,police hospital iseyin,iseyin,7.961703,3.60071
32,general hospital okaka,itesiwaju,8.2201735,3.45424134
33,general hospital iganna,iwajowa,7.958187,3.257492
34,iwere ile general hospital,iwajowa,8.004728,3.088847
35,okeho general hospital,kajola,8.04321,3.37996
36,akobo naval air force medical centre,lagelu,7.43193,3.94781
37,kutayi general hospital,lagelu,7.56797,4.04944
38,lagun general hospital,lagelu,7.53748,4.08695
39,ogbomoso state hospital,ogbomosho south,8.11183,4.23462
40,igbeti general hospital,olorunsogo,8.73668,4.14717
41,orile odo general hospital,oluyole,7.25039,3.85486
42,igboho general hospital,orelope,,
43,ikoyi-ile general hospital,ori ire,8.243967,4.165922
44,ago amodu general hospital,saki east,8.62098,3.61032
45,sepeteri general hospital,saki east,8.62931,3.63908
46,saki general hospital,saki west,8.67207,3.39747
47,iresadu general hospital,surulere,8.07833705,4.4022715
48,aba-adio primary health centre,afijio,7.71145,3.96057
49,abanti primary health centre,afijio,7.80734,3.76004
50,akinmorin primary health centre,afijio,7.79096,3.94648
51,asaju primary health centre,afijio,7.67436,3.82601
52,awe primary health centre,afijio,,
53,fiditi primary health centre,afijio,7.7185,3.91383
54,"fiditi primary health centre,fiditi",afijio,7.71851,3.91382
55,idi igba primary health centre,afijio,7.80426,3.91524
56,ijaye ojutaye primary health centre,afijio,7.64444,3.87141
57,ilora primary health center,afijio,7.80087,3.90393
58,ilu aje primary health centre,afijio,7.74856,3.88459
59,imini primary health centre,afijio,7.68938,3.79339
60,iware maternity  health centre,afijio,7.68237,3.9678
61,iware model primary health care,afijio,7.68001,3.96717
62,jobele primary health centre,afijio,7.765642,3.92184
63,mdg primary health centre,afijio,7.79499,3.89278
64,obananko primary health centre,afijio,7.82577,3.8455
65,oke boda primary health centre,afijio,7.81827,3.97179
66,"okediji primary health care,ilora",afijio,7.81077,3.88893
67,okediji primary health centre,afijio,7.8112,3.88898
68,ajibode primary health centre,akinyele,7.57021,3.88526
69,akinyele primary health centre,akinyele,7.59061,3.914347
70,alabata primary health centre,akinyele,7.59261,3.86733
71,alade health centre,akinyele,7.60226,4.01671
72,apapa odan primary health centre,akinyele,7.61998,3.93641
73,aroro  health centre,akinyele,7.52312,3.95789
74,atan health centre,akinyele,7.67783,3.757
75,elekuru primary health centre,akinyele,7.59228,3.82523
76,elepo primary health centre,akinyele,,
77,ijaye primary health centre,akinyele,7.6284,3.85084
78,ikereku primary health,akinyele,7.62989,3.97473
79,iroko  primary health centre,akinyele,7.65997,3.92346
80,iware primary health centre,akinyele,7.68021,3.78953
81,iwokoto health centre,akinyele,7.53072,3.91443
82,kajorepo primary health centre,akinyele,,
83,kara health centre,akinyele,7.61034,3.91388
84,moniya primary health centre,akinyele,7.53177,3.91074
85,ojoo  primary health centre,akinyele,7.47116,3.915688
86,olorisa-oko primary health centre,akinyele,7.56139,3.887
87,onidundu health centre,akinyele,7.62559,3.91885
88,owe kekun health centre,akinyele,,
89,pade model health centre,akinyele,,
90,pade model health centre,akinyele,7.62275,4.00957
91,sasa primary health centre,akinyele,7.48593,3.9139
92,uch annex primary health care centre,akinyele,7.54539,3.81052
93,aafin health centre,atiba,7.8547372,3.93366538
94,aafin primary health centre,atiba,7.8498977,3.93737052
95,ajiroba-agbaakin  health centre,atiba,8.11047,4.02079
96,arinkinkin health centre,atiba,8.10966,4.02221
97,ayetoro community health centre,atiba,7.84811613,3.90895721
98,boroboro health centre,atiba,7.858944,3.965484
99,elelu health centre,atiba,8.11544,4.02405
100,igbonla health centre,atiba,8.11318,4.0221
101,ijawaya health centre,atiba,7.92877,4.01256
102,ijawaya primary health centre,atiba,7.92433,4.01071
103,ilupeju  health centre,atiba,7.90329947,3.95384934
104,isale-oyo health centre,atiba,7.86344292,3.92466154
105,koso primary  health center,atiba,7.87918062,3.92647538
106,oke-olola primary health centre,atiba,7.85934715,3.94379005
107,oke-oroki health centre,atiba,,
108,onire-bara health centre,atiba,7.92897,4.00875
109,oniroko health centre,atiba,7.91477,4.77529
110,oroki health centre,atiba,7.863066,3.912127
111,otefon health center,atiba,8.11754,4.02581
112,abugudu primary health centre,atisbo,8.51664,3.41828
113,adeoye primary health centre,atisbo,8.64702,3.40268
114,agbele primary health centre,atisbo,8.40229,3.45092
115,ago are model primary health centre,atisbo,8.50907,3.41866
116,ago are primary health centre,atisbo,8.50888,3.41872
117,agunrege  primary health centre,atisbo,8.39535,3.39205
118,ajebandele primary health centre,atisbo,8.36216,3.56996
119,alajuba primary health centre,atisbo,8.38109,3.46742
120,alakuko model primary health centre,atisbo,8.49219,3.53894
121,atebe primary health centre,atisbo,8.52163,3.48014
122,baasi town primary health centre,atisbo,8.32449,3.39797
123,corner owo primary health centre,atisbo,8.36228,3.38316
124,irawo owode comprehensive health centre,atisbo,8.53775,3.36941
125,irawo owode primary health centre,atisbo,8.52606,3.36428
126,irawo-ile ori-okoo  primary health care centre,atisbo,8.53806,3.34831
127,model primary health care tede,atisbo,8.55086,3.44001
128,ofiki  primary health care centre,atisbo,8.44378,3.33127
129,ofiki primary health centre,atisbo,8.44243,3.33251
130,owotoro primary health centre,atisbo,8.41194,3.35759
131,sabe primary health centre,atisbo,8.43326,3.40327
132,tede comprehensive health centre,atisbo,8.54525,3.44671
133,tede primary health centre,atisbo,8.56175,3.44629
134,adeleye primary health centre,egbeda,7.45121,4.03555
135,adogba primary health centre,egbeda,7.41353,3.96141
136,ajiwogbo health centre,egbeda,7.48778,4.045621
137,alakia model primary health care center,egbeda,7.40139,3.97874
138,apete primary health centre,egbeda,7.40635,3.94577
139,asejire primary health centre,egbeda,7.36017,4.12307
140,atari primary health centre,egbeda,7.44286,4.04928
141,awaye primary health clinic,egbeda,7.39696,4.07194
142,egbeda primary health centre,egbeda,7.37593,4.04807
143,erunmu model primary health centre,egbeda,7.45033,4.07098
144,ikumapayi primary health centre,egbeda,7.41696,4.01427
145,kajorepo primary health centre,egbeda,7.41905,4.01353
146,kute primary health centre,egbeda,7.44555,3.98053
147,olode primary health centre,egbeda,7.38147,3.99534
148,olodo primary health centre,egbeda,,
149,oloya primary health centre,egbeda,7.41854,3.96697
150,oremeji primary health center,egbeda,7.38184,3.93509
151,owobale primary health centre,egbeda,7.42063,4.07088
152,pagun primary health centre,egbeda,,
153,wakajaye primary health centre,egbeda,7.41942,3.98532
154,agbowo phc,ibadan north,7.44454,3.232154
155,agbowo primary health centre,ibadan north,7.44947,3.91373
156,ago tapa primary health centre,ibadan north,7.40254,3.89216
157,barika primary health centre,ibadan n,7.44802,3.91104
158,basorun primary health centre,ibadan north,7.41521,3.93252
159,bodija primary health centre,ibadan north,7.42215,3.91441
160,idera de primary health centre,ibadan north,,
161,idi ogungun primary health center,ibadan north,7.39495,3.91795
162,mokola primary health center,ibadan north,7.41417,3.89815
163,obasa primary health centre,ibadan north,7.41417,3.89815
164,oke are primary health centre,ibadan north,7.43632,3.93974
165,oke itunu primary health centre,ibadan north,7.41611,3.89026
166,sabo primary health centre,ibadan north,7.40216,3.88562
167,samonda primary health  centre,ibadan north,7.43251,3.90489
168,sango primary health center,ibadan north,7.42755,3.89302
169,ajobo health centre,ibadan north east,7.37287,3.903528
170,akeke primary health centre,ibadan north east,7.41571,3.93882
171,alafara primary health centre,ibadan north east,7.38276,3.90504
172,aremo primary  health centre,ibadan north east,,
173,ayekale primary health centre,ibadan north east,7.37737,3.92782808
174,ilupeju health center,ibadan north east,,
175,iwo road primary health centre,ibadan north east,,
176,ode-aje  primary health centre,ibadan north east,,
177,oje primary health centre,ibadan north east,,
178,oke'badan health center,ibadan north east,,
179,oke-adu primary health centre,ibadan north east,,
180,omowumi primary health centre,ibadan north east,7.36587,3.92521
181,oranyan primary health centre,ibadan north east,,
182,police medical centre,ibadan north east,,
183,st. mary health centre,ibadan north east,,
184,ayeye primary health centre,ibadan north west,7.38083,3.89395
185,eleyele primary  health centre,ibadan north west,7.41701,3.86838
186,koseunti primary health centre,ibadan north west,7.42242,3.83947
187,oganla iware primary health centre,ibadan north west,7.39363,3.88619
188,ogunpa primary health centre,ibadan north west,7.38805,3.88417
189,oniyanrin primary health centre,ibadan north west,7.38957,3.89284
190,ori-eru primary health centre,ibadan north west,7.38135,3.89141
191,origbegi health centre,ibadan north west,7.38269,3.89338
192,agbongbon pimary health centre,ibadan south east,7.36692,3.89926
193,balaro primary health centre,ibadan south east,7.35461,3.90563
194,boluwaji primary health centre,ibadan south east,7.43629,3.73435
195,elekuro health centre,ibadan south east,7.36734,3.91409
196,eyin gramer primary health centre,ibadan south east,7.34629,3.89297
197,iyana court health centre,ibadan south east,7.35944,3.90414
198,lanioka health centre,ibadan south east,,
199,mapo primary health centre,ibadan south east,7.37626,3.89947
200,molete primary health center,ibadan south east,7.35719,3.88834
201,odinjo primary health centre,ibadan south east,7.35634,3.914498
202,oranmiyan primary health centre,ibadan south east,7.37559,3.90321
203,orita aperin primary heaith centre,ibadan south east,7.36535,3.91974
204,owode health centre,ibadan south east,,
205,adifase primary  health care centre,ibadan south west,7.38686,3.82915
206,akere primary health care centre,ibadan south west,7.37637,3.89459
207,akuro primary  health care centre,ibadan south west,7.36794,3.88547
208,alesinleloye primary health care centre,ibadan south west,7.38852,3.87114
209,awodife primary health care  centre,ibadan south west,7.35062,3.87496
210,bode primary health care  center,ibadan south west,7.36321,3.88944
211,elewura primary health care centre,ibadan south west,7.34773,3.87402
212,foko primary health care centre,ibadan south west,7.37604,3.88705
213,government college primary health care centre,ibadan south west,7.37862,3.83123
214,isale- osi primary health care  centre,ibadan south west,7.37398,3.89121
215,kososi primary health care centre,ibadan south west,7.37012,3.89246
216,odo- ona primary health care centre,ibadan south west,7.38122,3.85183
217,oke - bola primary health care centre,ibadan south west,7.38335,3.87749
218,oke- ayo primary health care  centre,ibadan south west,7.37408,3.85155
219,oluyole primary health  care centre,ibadan south west,7.36906,3.85972
220,sharp corner primary health care centre.,ibadan south west,7.37572,3.87849
221,idere model primary health centre,ibarapa central,7.48665,3.25699
222,idere primary health care  centre,ibarapa central,7.493245,3.2481
223,igbole primary health centre,ibarapa central,7.38882,3.31061
224,isale oba primary health centre,ibarapa central,7.43777,3.27391
225,kondo primary health centre,ibarapa central,,
226,model primary health care centre,ibarapa central,7.48665,3.35699
227,oke agogo health centre,ibarapa central,7.43657,3.28687
228,oke-odo primary health centre,ibarapa central,,
229,origi  primary health centre,ibarapa central,,
230,origi primary health care centre,ibarapa central,7.57799,3.16
231,oyo college of agriculture health centre,ibarapa central,,
232,tobalogbo primary health care,ibarapa central,7.53058,3.28179
233,tobalopo primary health centre,ibarapa central,,
234,afuye ijesa primary health centre,ibarapa east,7.55216,3.42323
235,alapa primary health centre,ibarapa east,7.65267,3.53582
236,anko  primary health centre,ibarapa east,7.53704,3.41984
237,idi-ata health centre,ibarapa east,7.53706,3.41978
238,maya primary health centre,ibarapa east,7.67731,3.44457
239,new eruwa health centre,ibarapa east,7.54902,3.44247
240,new eruwa primary health centre,ibarapa east,7.54903,3.44409
241,oke imale primary health centre,ibarapa east,7.58944,3.4492
242,oke-imale  primary health centre,ibarapa east,7.58946,3.44891
243,oke-oba eruwa primary health centre,ibarapa east,7.53709,3.41086
244,oke-ola eruwa primary health centre,ibarapa east,7.52569,3.422912
245,okolo health centre,ibarapa east,7.52737,3.51724
246,owode  primary health centre,ibarapa east,7.61049,3.53711
247,temidire primary health centre,ibarapa east,7.45633,3.47293
248,abidioki primary health centre,ibarapa north,7.76074,3.20612
249,akoya  primary health centre,ibarapa north,7.73355,3.09667
250,alabi primary health centre,ibarapa north,7.60108,3.3006
251,asunnara primary health centre,ibarapa north,7.6549,3.11745
252,ayete priamary health care centre,ibarapa north,7.54463,3.22093
253,idi ope millenium development goal primary health centre,ibarapa north,7.693554,3.18675
254,idiyan  primary health centre,ibarapa north,7.79762,3.12337
255,idiyan primary health center,ibarapa north,7.79762,3.12337
256,igangan oke ola primary health centre,ibarapa north,,
257,okeola primary health centre,ibarapa north,7.68207,3.18372
258,tapa primary health  centre,ibarapa north,7.5554,3.22811
259,akinware health centre,ido,,
260,akufo health centre,ido,7.51424,3.79431
261,alakaso health centre,ido,7.40777,3.73929
262,apete health centre,ido,7.45025,3.87071
263,araromi health centre,ido,,
264,awotan comprehensive health centre,ido,7.45665,3.85014
265,dagi health center,ido,7.98077,3.40151
266,elebu primary health centre,ido,7.35291,3.82146
267,gbekuba health centre,ido,7.39262,3.83298
268,ido primary health centre,ido,7.47319,3.76409
269,ladunni health centre,ido,7.57759,3.66212
270,ologuneru health centre,ido,7.43423,3.82896
271,olosun health center,ido,7.2306,3.45281
272,omi-adio health centre,ido,7.39524,3.75004
273,adagbangba primary health centre,irepo,9.02776,3.71984
274,agede primary health centre,irepo,9.07974,3.84651
275,ajangba primary health centre,irepo,9.08221,3.64732
276,alalubosa primary health centre,irepo,9.02776,3.71984
277,atipa primary health centre,irepo,9.08432,3.85317
278,awe primary health centre,irepo,9.02331,3.81304
279,budo olaniyan primary health centre,irepo,8.96855,3.89046
280,budo tailor primary health center,irepo,9.17806,3.76413
281,gaa jooro primary health centre,irepo,9.06735,3.83056
282,igbo elemi /gudu primary health centre,irepo,9.05136,3.93976
283,koso primary health centre,irepo,9.08934,3.85656
284,laha/ajana millenium development goal primary health centre,irepo,9.06344,3.85836
285,mapo primary health centre,irepo,9.09177,3.85031
286,model primary health care centre olorunsogo,irepo,9.08161,3.85634
287,molete primary health center,irepo,9.072633,3.849867
288,molete primary health centre,irepo,9.07264,3.84992
289,obada primary health centre,irepo,9.86194,3.85314
290,sise orowo primary health centre,irepo,,
291,soroo primary health centre,irepo,,
292,tege/owode primary health centre,irepo,9.08857,3.84395
293,welewele  primary health centre,irepo,,
294,aba serafu model primary health care centre,iseyin,7.853201,3.683889
295,ado awaye primary health care centre,iseyin,7.829199,3.430252
296,ajelanwa primary health centre,iseyin,7.96645,3.58498
297,ekunle primary health care centre,iseyin,7.95892,3.5955559
298,elegede fsp primary health care centre,iseyin,7.96281,3.60487
299,faramora primary health care centre,iseyin,7.97059,3.60394
300,gboro primary health care center,iseyin,8.221938,3.6465
301,ifelajulo primary health care centre,iseyin,7.97017,3.56235
302,ilado primary health care centre,iseyin,7.95925,3.58787
303,isalu primary health care centre,iseyin,,
304,koso primary health care centre,iseyin,7.97047,3.57748
305,ladogan primary health care centre,iseyin,7.96808,3.59209
306,ode oba primary health care centre,iseyin,7.96802,3.59686
307,oke ola primary health care centre,iseyin,7.9737,3.60129
308,oke-ola kasaba primary health centre,iseyin,,
309,olugbade primary health care centre,iseyin,8.034908,3.475216
310,osoogun primary health care centre,iseyin,7.715193,3.475075
311,adegbodu komu primary health centre,itesiwaju,8.292727,3.0311179
312,babaode primary health centre,itesiwaju,8.20633,3.21537
313,ifelodun primary health centre,itesiwaju,8.13988,3.52271
314,igbojaye primary health center,itesiwaju,8.23689453,3.239685058
315,ipapo primary health centre,itesiwaju,8.13619,3.50694
316,komu health centre,itesiwaju,8.22748,3.20601
317,komu primary health centre,itesiwaju,8.22616,3.19688
318,okaka primary health centre,itesiwaju,8.215548,3.459077
319,oke afin health centre,itesiwaju,8.219767,3.46794
320,oke amu comrehensive health centre,itesiwaju,8.126968,3.527862
321,oke-amu primary health centre,itesiwaju,8.12585,3.51851
322,opoo okaka health centre,itesiwaju,8.30956,3.45821
323,otu ibise primary health centre,itesiwaju,8.20669,3.40152
324,otu ilesan comprehensive health centre,itesiwaju,8.205078,3.412719
325,owode primary health centre,itesiwaju,8.230053,3.564555
326,rogal fulani primary health centre,itesiwaju,8.33138,3.23455
327,temidire health centre,itesiwaju,8.300588,3.555884
328,ayegun primary health centre,iwajowa,8.010477,2.724212
329,egbonron primary health centre,iwajowa,8.053397,3.220335
330,elekokan primary health centre,iwajowa,7.839551,3.223523
331,gbedu  primary health centre,iwajowa,8.059708,2.962722
332,idiko ago primary  health centre,iwajowa,7.991172,3.078423
333,idiko ile primary  health centre,iwajowa,7.931423,3.018645
334,ijio primary health centre,iwajowa,7.94336,2.98102
335,ilaji ile primary  health centre,iwajowa,7.98545,3.05299
336,itasa primary health centre,iwajowa,8.017835,3.046993
337,iwere ile model primary health centre,iwajowa,7.999507,3.105732
338,iwere-ile primary health centre,iwajowa,7.997055,3.08107
339,jokolo primary health centre,iwajowa,7.843172,3.310277
340,karimu health centre,iwajowa,7.90235,3.23283
341,ladoja iganna health centre,iwajowa,,
342,lam adesina primary health centre,iwajowa,7.979893,3.235778
343,ofegun health centre,iwajowa,7.877055,3.149442
344,olokunola primary health centre,iwajowa,7.860768,3.227807
345,agbagi primary health centre,kajola,8.09066,3.35643
346,alaapa primary health centre,kajola,8.02116,3.34707
347,ayetoro oke primary health centre,kajola,8.05151,3.33983
348,bode iba ogan primary health center,kajola,,
349,bode primary health centre,kajola,8.03951,3.34872
350,elero maternity centre,kajola,8.08951,3.34959
351,elewure primary health centre,kajola,8.04119,3.44027
352,gbelekale primary health center,kajola,,
353,gbonje primary health centre,kajola,8.03176,3.34639
354,idi ayin primary health centre,kajola,8.13236,3.38732
355,igbogaa primary health centre,kajola,7.94234,3.43335
356,ijio primary health centre,kajola,8.035317,3.343633
357,ijo primary health centre,kajola,8.03529,3.34439
358,ilaji oke primary health centre,kajola,8.05618,3.33809
359,ilua primary health centre,kajola,8.00445,3.40242
360,ilupeju primary health centre,kajola,8.03756,3.37304
361,isemi-ile  primary health centre,kajola,7.99437,3.36721
362,isemi-ile primary health centre,kajola,7.99437,3.36721
363,isia primary  health centre,kajola,8.02721,3.35597
364,kajola primary health centre,kajola,8.08893,3.3404
365,abidiodan primary health centre,lagelu,7.42974,3.96134
366,akinsawe health centre,lagelu,7.48167,4.10292
367,alegongo primary health centre,lagelu,7.44072,3.95217
368,ejioku primary health centre,lagelu,7.47561,4.07171
369,elewi-odo primary health centre,lagelu,7.41947,3.94564
370,gbaagi primary health centre,lagelu,7.45889,3.95829
371,iyana church primary health centre,lagelu,7.42028,3.97051
372,lalupon primary health centre,lagelu,7.46167,4.06541
373,monatan primary health centre,lagelu,7.41097,3.94549
374,odo -oba  primary  health center,lagelu,7.47528076,4.1276855
375,offa igbo primary health centre,lagelu,7.50804,4.11276
376,olorunda primary health centre,lagelu,,
377,ore primary health centre,lagelu,7.53148,4.08825
378,oyedeji primary health centre,lagelu,7.54731,4.04818
379,sagbe health centre,lagelu,,
380,adun-in primary health centre,ogbomosho north,8.13419,4.27048
381,aje-ikose primary health centre,ogbomosho north,8.19215,4.23092
382,baaki primary health centre,ogbomosho north,8.12127,4.25228
383,blind centre primary health centre,ogbomosho north,8.13518,4.20942
384,gaa masifa primary health centrre,ogbomosho north,8.14016,4.25495
385,ibrahim taiwo primary health centre,ogbomosho north,8.13038,4.24754
386,ikose primary  health centre,ogbomosho north,8.19198,4.20749
387,ladoke akintola katangua primary health centre,ogbomosho north,8.14751,4.26875
388,masifa primary health centre,ogbomosho north,8.13555,4.25161
389,okeelerin primary health centre,ogbomosho north,8.13422,4.24146
390,osupa health centre,ogbomosho north,8.1319,4.23707
391,taraa primary health centre,ogbomosho north,8.13843948,4.24217732
392,adebayo alata primary health centre,ogbomosho south,8.12395,4.22496
393,alabede primary health centre,ogbomosho south,8.10097,4.23427
394,arowomole model primary health centre,ogbomosho south,8.11184,4.23566
395,ayetoro primary health centre,ogbomosho south,8.11155,4.21405
396,igboyi comm. primary health centre,ogbomosho south,8.13831,4.212829
397,ijeru primary health centre,ogbomosho south,8.12656,4.24299
398,ilogbo primary health centre,ogbomosho south,8.11612,4.24444
399,kajola comprehensive health centre,ogbomosho south,8.11298,4.22599
400,model primary health centre,ogbomosho south,,
401,oke olla primary health centre,ogbomosho south,8.12733,4.23948
402,ajaawa model comprehensive health centre,ogo oluwa,,
403,ajaawa model primary  health centre,ogo oluwa,7.92797,4.13631
404,ayede primary health centre,ogo oluwa,7.98366,4.13676
405,ayegun yemetu primary health centre,ogo oluwa,8.01749,4.21959
406,elega primary health centre,ogo oluwa,7.93946,4.20135
407,elesade primary health centre,ogo oluwa,7.96662,4.20942
408,ibere primary health centre,ogo oluwa,7.92818,4.20812
409,idewure primary health centre,ogo oluwa,7.86857,4.20547
410,idi ori primary health center,ogo oluwa,7.97773,4.11961
411,igboile oje health centre,ogo oluwa,8.0591,4.1995
412,iroo primary health centre,ogo oluwa,7.99665,4.24227
413,iwo-ate primary health centre,ogo oluwa,7.84945,4.10974
414,lagbedu primary  health centre,ogo oluwa,7.910221,4.15663
415,mowolowo primary health centre,ogo oluwa,7.89883,4.10654
416,obanisunwa primary health centre,ogo oluwa,7.97126,4.15237
417,odo-oba primary health centre,ogo oluwa,8.24876,4.85932
418,odofo primary health centre,ogo oluwa,7.98389,4.14982
419,ojutaye primary health centre,ogo oluwa,7.93606,4.13434
420,olode pontela primary health centre,ogo oluwa,,
421,olokoo primary health centre,ogo oluwa,7.97331,4.25418
422,olugusi primary health centre,ogo oluwa,7.96282,4.22579
423,opete primary health centre,ogo oluwa,7.98711,4.17831
424,orile oje primary health centre,ogo oluwa,8.07523,4.20733
425,otamokun primary health centre,ogo oluwa,7.95478,4.17304
426,pontela akinola primary health centre,ogo oluwa,7.92147,4.17091
427,alawa primary health centre,olorunsogo,8.83399,4.17508
428,apatalaje primary health centre,olorunsogo,8.60374,4.03994
429,asunmode primary health centre,olorunsogo,8.74839,4.14273
430,dogo leemp primary health centre,olorunsogo,8.706617,4.183483
431,gaa saliu primary health centre,olorunsogo,8.83702,4.15728
432,moti primary  health centre,olorunsogo,8.64342,4.05417
433,ogundiran primary health centre,olorunsogo,8.85352,4.15591
434,ojo-aaro primary health centre,olorunsogo,8.68361,4.05514
435,oke-abe primary health centre,olorunsogo,8.74218,4.12907
436,oke-ibukun primary health centre,olorunsogo,8.75649,4.12503
437,ologbon primary health centre,olorunsogo,8.75176,4.12859
438,owode primary health centre,olorunsogo,8.74392,4.13839
439,tesi apata leemp health centre,olorunsogo,8.78635,4.104586
440,tesi garuba primary health centre,olorunsogo,8.86497,4.04018
441,adaramogba olomi primary health centre,oluyole,7.34248,3.91649
442,adeyeri primary health centre,oluyole,7.32161,3.94569
443,agric general primary health centre,oluyole,7.32278,3.92297
444,ajofebo primary health centre,oluyole,,
445,ayegun primary health centre,oluyole,7.28958,3.9275
446,bare primary health centre,oluyole,7.26821,3.81954
447,crin health centre,oluyole,7.22325,3.87365
448,fawole idi obi primary health centre,oluyole,,
449,idi iroko comprehensive health centre,oluyole,7.32318,3.82244
450,ifelodun primary health centre,oluyole,7.35297,3.92877
451,latunde primary health centre,oluyole,7.72596,3.57466
452,mosfala primary health centre,oluyole,7.34442,3.92737
453,oba nla primary health centre,oluyole,,
454,odo okun health center,oluyole,7.29952807,3.84370292
455,odo okun primary health centre,oluyole,7.29928,3.84356
456,oja ibadan primary health centre,oluyole,7.91349,3.47287
457,ope agbe health centre,oluyole,7.33669,3.92532
458,ope agbe primary health center,oluyole,,
459,aba emu primary health centre,ona ara,7.33957,3.96177
460,adigun health centre,ona ara,7.273789,4.072598
461,ajia primary health centre,ona ara,7.34088,4.03055
462,akanran primary health centre,ona ara,7.28037,4.02621
463,alapafon primary health centre,ona ara,7.352458,3.959612
464,awotunde olosunde primary health center,ona ara,,
465,badeku primary health centre,ona ara,7.350925,4.070353
466,bioku araba health centre,ona ara,7.367115,4.003501
467,butubutu primary health centre,ona ara,7.28418,4.11924
468,fawole idi obi primary health centre,ona ara,7.373641,3.966598
469,gangansi primary health care centre,ona ara,7.366918,3.952353
470,gbada primary health centre,ona ara,7.307141,4.064248
471,gbaremu primary health centre,ona ara,7.373667,3.962426
472,gbede ogun primary health centre,ona ara,7.318918,3.961937
473,gbedun primary  health centre,ona ara,7.226377,4.025733
474,gelinco primary health centre,ona ara,7.340097,3.999573
475,kehinsi primary health centre,ona ara,7.371963,3.947905
476,ogidi primary health care centre,ona ara,7.314605,3.975487
477,ojoku maternity health centre,ona ara,7.333434,4.054231
478,oke imole primary health centre,ona ara,7.34354,3.94866
479,olaoluwa primary health centre,ona ara,7.356563,4.001888
480,olosunde-awotunde-babarere primary health centre,ona ara,7.363806,3.934098
481,oniyefun primary health centre,ona ara,7.32914,3.9603
482,oremeji primary health centre,ona ara,,
483,palupo primary health care centre,ona ara,7.33569,3.956427
484,sarat adesina primary health centre,ona ara,7.377967,3.937335
485,seminbio primary health center,ona ara,7.33848,3.9783
486,bonni primary health centre,orelope,8.85097,3.76032
487,foomu primary health centre,orelope,8.92282,3.87105
488,igbope primary health centre,orelope,8.83558,3.78274
489,iya primary health center,orelope,8.83268,3.75809
490,kajola primary health centre,orelope,8.74727,3.76551
491,mafowaku primary health centre,orelope,8.83258,3.75024
492,modeke primary health centre,orelope,8.83517,3.75149
493,ologede primary health centre,orelope,8.98645,3.63674
494,oloko primary  health centre,orelope,8.88596,3.64184
495,owode primary health centre,orelope,8.84552,3.75803
496,adafila primary health centre,ori ire,8.45669,4.24069
497,adetunji primary health centre,ori ire,,
498,ahoro dada primary health centre,ori ire,8.15343,4.00425
499,ajinapa primary health centre,ori ire,8.29818,4.24647
500,alapete primary health centre,ori ire,,
501,alaroponla primary health centre,ori ire,8.23437,4.06727
502,antete primary health centre,ori ire,8.23488,4.13501
503,bosunla primary health centre,ori ire,8.10407,4.16006
504,elega primary health centre,ori ire,8.00703,4.10358
505,elerukanfila primary health centre,ori ire,8.49087,4.22551
506,elesun adeosun primary health centre,ori ire,8.16574,4.06436
507,esinele oyo primary health centre,ori ire,8.24399,4.01213
508,igbori primary health centre,ori ire,8.62434,4.18614
509,ikoyi ile primary health centre,ori ire,8.245267,4.175133
510,iluju primary health centre,ori ire,8.20761,4.193567
511,ipekun primary health centre,ori ire,8.36428,4.314
512,kajola primary health centre,ori ire,8.42773,4.26653
513,lapelu primary health centre,ori ire,8.09349,4.100535
514,maya  primary health centre,ori ire,8.04881,4.10755
515,moleyo primary health centre,ori ire,8.06036,4.04226
516,obamo primary health centre,ori ire,8.28602,4.11827
517,oko ile primary health centre,ori ire,8.19037,4.01317
518,oloka primary health centre,ori ire,8.323587,4.057683
519,olokota primary health centre,ori ire,8.58154,4.19763
520,olorunda maternity centre,ori ire,8.34871,4.24272
521,onilali primary health centre,ori ire,8.60916,4.23378
522,oolo primary health centre,ori ire,8.02829,4.12387
523,tewure primary health centre,ori ire,,
524,agboye primary health centre,oyo east,7.84372,3.94069
525,akoda igbo olosun primary health centre,oyo east,7.71717,4.05651
526,alabi olorunda model primary health centre,oyo east,7.70855,4.01502
527,alawusa primary health centre,oyo east,7.740829,3.95542
528,ayedoyin primary health centre,oyo east,7.81618,4.00908
529,idi iya primary health centre,oyo east,7.89172,4.05594
530,idode primary  health centre,oyo east,7.88124,3.99576
531,ile oba  primary health centre,oyo east,7.90053,4.07841
532,imeleke health facility centre,oyo east,7.70558,3.9927
533,jabata primary health centre,oyo east,7.83988,3.93389
534,modeke primary health centre,oyo east,7.84586,3.93181
535,oba adeyemi primary health centre,oyo east,7.83169,3.93605
536,oja omo oba primary health centre,oyo east,7.69374,4.04039
537,oke-apo maternity centre,oyo east,7.83951,3.93587
538,olori primary  health centre,oyo east,7.77858,4.07073
539,owode elete primary health centre,oyo east,7.96011,4.06943
540,aba ilorin community health centre,oyo west,7.70271,3.65289
541,akeetan primary health centre,oyo west,7.84116,3.92084
542,ayetoro scheme health centre,oyo west,7.86687,3.89418
543,fasola primary  health  centre,oyo west,7.90018,3.78403
544,idi iyalode health centre,oyo west,7.73926,3.74993
545,iseke primary health centre,oyo west,7.83862,3.91737
546,isokun primary health centre,oyo west,7.84911,3.91827
547,iyaji primary health centre,oyo west,7.84902,3.92767
548,kolobo primary health centre,oyo west,7.84896,3.91823
549,ladigbolu health centre,oyo west,7.82004,3.91649
550,ladindin health centre ojongbodu,oyo west,7.84337,3.92533
551,oluwatedo health centre,oyo west,7.81671,3.76323
552,agbonle primary health centre,saki east,8.62105,3.61054
553,ago amodu primary health centre,saki east,8.621068,3.6099578
554,aladura primary health centre,saki east,8.231421,3.421681
555,amukoko primary health centre,saki east,8.621095,3.621095
556,araromi primary health care centre,saki east,8.71043,3.70913
557,lukutu primary health centre,saki east,8.62109,3.61044
558,ogbooro comprehensive health centre,saki east,8.621095,3.621095
559,ogbooro model primary health care,saki east,8.77325,3.61791
560,ogboro primary health centre,saki east,8.621095,3.621095
561,oje owode model primary health centre,saki east,8.577113,3.503569
562,oje owode primary health centre,saki east,8.590283,3.497783
563,sepeteri primary health care centre,saki east,8.62595,3.63747
564,adabo primary health centre,saki west,8.66236,3.39881
565,agoluabi primary health center,saki west,8.69123,3.38524
566,ajegunle primary health centre,saki west,8.65287,3.40492
567,ajelanwa primary health centre,saki west,8.71492,3.20287
568,arafat primary health care centre,saki west,8.67791,3.39594
569,ayekale primary health centre,saki west,8.63674,3.38466
570,baabo primary health centre,saki west,8.67761,3.37068
571,challenge primary health centre,saki west,8.63675,3.38691
572,ekokan primary health centre,saki west,8.75191,3.26624
573,gbepakan primary health center,saki west,8.74207,3.14968
574,idera primary health centre,saki west,8.68015,3.36748
575,igboologun primary health centre,saki west,8.64794,3.38767
576,ilua primary health centre,saki west,8.67827,3.36777
577,isale alufa primary health centre,saki west,8.68029,3.37218
578,isale efin primary health centre,saki west,8.66988,3.39295
579,isale oro primary health centre,saki west,8.66686,3.37842
580,isale taba primary health centre,saki west,8.66977,3.39251
581,isia primary health centre,saki west,8.66382,3.39038
582,iya primary health centre,saki west,8.67609,3.39207
583,kininkinni primary health centre,saki west,8.66881,3.37087
584,mokola primary health centre,saki west,8.68217,3.39185
585,ogidigbo primary health centre,saki west,8.66837,3.38089
586,oke odo primary health centre,saki west,8.64948,3.8877
587,okerete modern primary health centre,saki west,8.56241,2.76322
588,onigbongbo primary health centre,saki west,,
589,otun primary health centre,saki west,8.65706,3.39119
590,salam salam primary health centre,saki west,8.70766,3.40154
591,sango primary health centre,saki west,8.68295,3.40111
592,sangote primary health centre,saki west,8.67548,3.37404
593,sanni-sala primary health centre,saki west,8.73775,3.07896
594,wasangare alabafe primary health centre,saki west,,
595,wasangare oja primary health center,saki west,8.82384,3.41229
596,abogunde primary heath centre,surulere,8.362401,4.416804
597,aganyan health centre,surulere,8.128302,4.395627
598,ajase health centre,surulere,8.210148,4.40446
599,amosa primary health centre,surulere,8.004165,4.271787
600,arolu primary health  centre,surulere,7.997942,4.433383
601,baale oba primary health centre,surulere,7.89929199,4.422729492
602,baaya oje primary health centre,surulere,8.152701,4.338749
603,comprehensive primary health centre iresaadu,surulere,8.085869,4.390115
604,gambari primary health centre,surulere,8.270607,4.318812
605,gbede primary health centre,surulere,8.296232,4.345457
606,iranyin primary health centre,surulere,7.968548,4.44221
607,iregba primary health centre,surulere,8.051253,4.489267
608,iresaapa primary health centre,surulere,8.076985,4.3511178
609,iwofin primary health centre,surulere,8.162033,4.395633
610,jabata primary health centre,surulere,8.24386,4.394625
611,laege primary health centre,surulere,,
612,mayin primary health centre,surulere,8.1526,4.29498
613,oko  market primary health centre,surulere,7.955297,4.342338
614,oko model primary health centre,surulere,7.961615,4.347317
615,olode primary health centre,surulere,8.051033,4.551613
616,aged and widow clinic,afijio,7.767072,3.91923
617,akinmorin europian economic clinic,afijio,7.78431,3.93948
618,eleekara health clinic,afijio,7.79589,3.91993
619,ilora farm settlement,afijio,7.78462,3.79725
620,tb l clinic,afijio,,
621,aged and widow mini clinic,akinyele,7.53298,3.91142
622,mele health clinic,akinyele,7.53546,3.85441
623,moniya tuberculosis and leprosy control clinic,akinyele,7.53017,3.91375
624,orogun health clinic,akinyele,7.45746,3.91215
625,aged and widow clinic,atiba,7.8557834,3.93410157
626,arinkinkin primary health clinic,atiba,,
627,atiba staff clinic,atiba,7.8592525,3.96593302
628,ilowagbade health clinic,atiba,8.14612,3.90675
629,state health office,atiba,7.854166,3.956551
630,"tb, leprosy and buruli ulcer clinic",atiba,7.854181,3.956282
631,aged and widow clinic,atisbo,,
632,ago are tuberculusis and leprosy clinic,atisbo,8.50867,3.41882
633,tede mini widow and aged clinic,atisbo,8.54495,3.44029
634,aged and widow mini clinic,egbeda,7.37915,4.04723
635,oremeji tuberculosis and leprocy,egbeda,7.39738,3.95164
636,osegere health clinic,egbeda,7.31695,4.06293
637,ajose health clinic,ibadan north,7.39384,3.89524
638,goverment house clinic,ibadan north,7.40155,3.91668
639,ibadan north staff clinic,ibadan north,7.39676,3.91949
640,ibadan university health service clinic jaja,ibadan north,7.44289,3.90034
641,kola daisi foundation clinic,ibadan north,7.39614,3.89887
642,polytechnic clinic,ibadan north,7.34727,3.88506
643,secretariat staff clinic,ibadan north,7.41148,3.90822
644,aged and widow mini- clinic,ibadan north east,7.40481,3.93384
645,alafara tuberculusis and leprosy,ibadan north east,7.38264,3.90521
646,lagelu youth friendly clinic,ibadan north east,,
647,oyo state broadcasting coporation,ibadan north east,,
648,aged and widow clinic,ibadan north west,7.39274,3.87872
649,mokola army barrack hospital,ibadan north west,7.41503,3.88542
650,onireke health clinic,ibadan north west,7.39235,3.87908
651,school of hygiene eleyele,ibadan north west,,
652,school of nursing eleyele,ibadan north west,7.41071,3.87437
653,orita challenge primary health clinic,ibadan south east,7.339199,3.87206
654,adifase tuberculusis and leprosy clinic,ibadan south west,7.38692,3.82908
655,aged & widow clinic,ibadan south west,7.36623,3.85571
656,estate primary  health care clinic,ibadan south west,7.36639,3.85586
657,molete  tuberculosis and leprosy clinic,ibadan south west,7.36009,3.88933
658,akeroro health clinc,ibarapa central,7.48564,3.35719
659,idere health clinic,ibarapa central,7.49306,3.24842
660,royal hospital and maternity,ibarapa central,,
661,sekere health clinic,ibarapa central,7.36665,3.30913
662,women and widow  hospital,ibarapa central,7.43996,3.30073
663,aged and widow clinic,ibarapa east,7.5324,3.42712
664,anko health clinic,ibarapa east,7.53716,3.41948
665,ilado health clinic,ibarapa east,7.62131,3.32147
666,isaba health clinic,ibarapa east,7.53121,3.41558
667,itabo family support programme clinic,ibarapa east,,
668,oke-imale health clinic,ibarapa east,7.54903,3.44449
669,polytechnic clinic,ibarapa east,,
670,tbl clinic,ibarapa east,7.53716,3.41996
671,tapa 6 bed hospital,ibarapa north,7.55841,3.23372
672,tapa six bed hospital,ibarapa north,7.5225,3.22325
673,tapa tuberculusis and leprocy clinic,ibarapa north,7.55548,3.22832
674,aba panu health clinic,ido,7.36078,3.81633
675,aged and widow clinic,ido,,
676,ado-awaye eec general hospital,iseyin,7.835656,3.435468
677,akinwumi health clinic,iseyin,7.757942,3.542858
678,alayin health clinic,iseyin,8.203073,3.689799
679,apenpe primary health clinic,iseyin,7.802917,3.694511
680,idi  ayin primary health clinic,iseyin,7.93235,3.661376
681,isalu tuberculusis and leprosy clinic,iseyin,7.992548,3.593818
682,millenium development goal health clinic ode oba,iseyin,,
683,ode oba aged and widow clinic,iseyin,,
684,ogboolasa health clinic,iseyin,7.74633,3.50107
685,ilesan otu aged and widow clinic,itesiwaju,8.204882,3.412968
686,otu tuberculosis leprosy clinic,itesiwaju,8.205447,3.412858
687,abule tapa health clinic,iwajowa,7.805697,3.214885
688,eleru primary health clinic,iwajowa,7.871633,3.195408
689,iganna staff clinic,iwajowa,7.980118,3.235425
690,iganna tuberculusis and leprosy,iwajowa,7.979617,3.235797
691,iwere ile dispensary,iwajowa,7.998278,3.090673
692,ijo tuberculosis and leprosy  clinic,kajola,8.03529,3.34439
693,ilero maternity centre,kajola,8.08952,3.34959
694,isia aged and widow clinic okeho,kajola,8.03315,3.35883
695,abudoro health clinic,lagelu,7.49976,4.02533
696,air force comprehensive school hospital,lagelu,7.49773,4.07435
697,alape primary health clinic,lagelu,7.57206,4.07709
698,fakeye primary health clinic,lagelu,7.57647,4.0639
699,lalupon health  clinic,lagelu,7.46159,4.06559
700,ogunremi primary health clinic,lagelu,7.59568,4.05705
701,widow and aged clinic,lagelu,7.50014,4.08185
702,isale afon primary health clinic,ogbomosho north,8.13055,4.24747
703,t.b.l clinic,ogbomosho north,8.12739,4.24607
704,tuberculusis and leprosy control clinic,ogbomosho south,8.12656,4.242299
705,ajawa aged &widow clinic,ogo oluwa,7.92917,4.13334
706,alaruru health clinic,ogo oluwa,7.98564,4.19601
707,tuberculosis and leprosy clinic,ogo oluwa,7.92927,4.13004
708,aboke health is wealth clinic,olorunsogo,8.74663,4.14214
709,oju oja primary health clinic,olorunsogo,8.74204,4.12907
710,owode aged and widow clinic,olorunsogo,8.74348,4.13723
711,aba afa primary health clinic,oluyole,7.32509,3.91306
712,aba nla primary health clinic,oluyole,7.22564,3.83849
713,aba ode primary health clinic,oluyole,7.29228,3.88862
714,adewole idirok primary health clinic,oluyole,7.33947,3.76652
715,agbale-panu primary health clinic,oluyole,7.33578,3.86242
716,ayegun oleyoprimary  health clinic,oluyole,7.31264,3.81027
717,ayetoro primary health clinic,oluyole,7.19663,3.95343
718,busogboro primart health clinic,oluyole,7.17097,3.87805
719,egbeda tuba primary health clinic,oluyole,7.31958,3.95336
720,idi-ayunre primary health clinic,oluyole,7.23341,3.86042
721,imole oluwa maternity home,oluyole,,
722,ire akari primary health clinic,oluyole,7.19357,3.53295
723,irepodun primary health clinic,oluyole,7.35617,3.92654
724,maje primary health clinic,oluyole,7.31396,3.69144
725,odo ona access basic foundation clinic,oluyole,7.32832,3.86833
726,odo ona elewe primary health clinic,oluyole,7.33316,3.85767
727,odo ona kekere primary health clinic,oluyole,7.26821,3.81964
728,oloode primary  health clinic,oluyole,7.20686,3.94657
729,onipe primary health clinic,oluyole,7.11561,3.5372
730,pegba primary health clinic,oluyole,7.34234,3.94021
731,police clinic,oluyole,7.33435,3.86694
732,aged and widow clinic,orelope,8.83268,3.75809
733,owode dispensary,orelope,8.84552,3.75803
734,aged and widow health clinic,ori ire,8.23436,4.17533
735,eleruwa primary health clinic,ori ire,8.29086,4.18509
736,iporin primary health clinic,ori ire,8.18891,4.07275
737,tbl clinic,ori ire,7.9292,4.1299
738,ajagba maternity centre,oyo east,7.76904,4.02324
739,oba adeyemi tuberculusis leprosy,oyo east,7.83201,3.93627
740,oko oba maternity centre,oyo east,7.81501,3.94291
741,oyo east staff clinic,oyo east,7.83664,3.94242
742,oyo state hospital,oyo east,8.3188,3.92914
743,"aged and widow clinic,ojongbodu,oyo",oyo west,7.85011,3.91063
744,iseke tuberculosis and leprosy clinic,oyo west,7.83901,3.91742
745,olorunda  health clinic,oyo west,7.92618,3.85197
746,oyo west local government staff clinic,oyo west,7.85193,3.90979
747,soku primary  health clinic,oyo west,7.90024,3.74883
748,access basic centre,saki east,8.621068,3.621095
749,aged and widow clinic,saki east,8.631388,3.611678
750,ago amodu primary health care clinic,saki east,8.621112,3.609823
751,ogboro clinic,saki east,8.621095,3.6210958
752,244 battalion medical reception station,saki west,8.62859,3.44588
753,adabo tuberculosis leprosy,saki west,8.67173,3.38408
754,saki west aged and widow mini clinic,saki west,,
755,aged and widow clinic,surulere,,
756,alate  health clinic,surulere,8.309978,4.379583
757,igbon health clinic,surulere,8.2473145,4.305908203
758,ige memorial convalescent and maternity home,surulere,8.2111206,4.334899902
759,maya health clinic,surulere,8.046753,4.396475
760,ogele health clinic,surulere,7.948538,4.307073
761,t.b.l clinic,surulere,8.085862,4.310132
762,jariya/ sangobo health post,akinyele,7.63699,3.8218
763,oretu health post,akinyele,7.92336,3.8889
764,otefon health post,atiba,8.146,3.90708
765,ayede health post,egbeda,7.44467,4.38883
766,ashi health post,ibadan north,7.41321,3.94251
767,agugu health post,ibadan north east,7.38447,3.92208
768,irefin babasale health post,ibadan north east,,
769,koloko health centre,ibadan north east,7.37259,3.9247
770,odo osun health post,ibadan north east,,
771,"felele health post, felele",ibadan south east,7.34509,3.88884
772,omiyale health post,ibadan south east,,
773,oriaje health post,ibadan south east,7.35811,3.90017
774,ilaju health post,ido,,
775,koguo health post,ido,7.50883,3.72123
776,odetola health post,ido,7.438165,3.730124
777,ebedi health post,iseyin,7.957793,3.614328
778,odo ogun health post,iseyin,7.902915,3.504559
779,otiri health post,iseyin,8.068456,3.535532
780,imoba / oke ogun health post,kajola,8.02967,3.34671
781,agric health post,ogbomosho south,8.09584505,4.19936104
782,akata health post,ogbomosho south,8.12478,4.23579
783,alabede health post,ogbomosho south,8.10097,4.23427
784,alapata health post,ogbomosho south,8.12458,4.23099
785,ijeru health post,ogbomosho south,8.12426,4.24328
786,isoko health post,ogbomosho south,8.12639,4.23631
787,iyawo ogun health post,ogbomosho south,8.11798,4.22143
788,randa health post,ogbomosho south,8.13469,4.23093
789,surulere health post,ogbomosho south,8.12823,4.21531
790,opo health post,orelope,8.73958,3.72192
791,biiro health post,ori ire,8.13378,4.03409
792,aguo health post,oyo east,7.74791,3.91566
793,araromi health post,oyo east,7.81799,3.94051
794,gudugbu orile health post,oyo east,7.80367,4.04063
795,ona aka health post,oyo east,7.93618,4.06754
796,ajokidero health post,oyo west,7.85271,3.93135
797,lakonu health post,oyo west,7.85804,3.85678
798,pakoyi health post,oyo west,7.85079,3.92635
799,imodi health post,saki east,8.621095,3.621095
800,isale ola health post sepeteri.,saki east,8.621068,3.637353
801,yikiyiki health post,saki east,8.621068,3.621095
802,kooko health post,saki west,8.66308,3.39869
803,atapa health post,surulere,8.069477,4.420713
804,babanifa health post,surulere,8.180997,4.438512
805,egbeda health post,surulere,8.213061,4.285673
806,ijado health post,surulere,8.24389649,4.394714355
807,ijado health post,surulere,7.9362793,4.366699219
808,iyelu health post,surulere,,
809,ogojo health post,surulere,8.120077,4.31789
810,okin health post,surulere,8.047025,4.28604
811,poro health post,surulere,8.47402,4.361852
812,sekengbede health post,surulere,8.115118,4.374817
